{
  "index_name": "0763457c-1bb2-4fde-a9e5-12c0c1dd79aa",
  "title": "District-wise details of SIDCO Industrial Estates in Tamil Nadu (as on 31.07.2018)",
  "desc": "District-wise details of SIDCO Industrial Estates in Tamil Nadu (as on 31.07.2018)",
  "org_type": "State",
  "org": [
    "Tamil Nadu",
    "Micro Small and Medium Enterprises Department, Tamil Nadu",
    "Tamil Nadu Small Industries Development Corporation Ltd (TANSIDCO)"
  ],
  "sector": [
    "Industries",
    "Small Scale"
  ],
  "source": "tn.data.gov.in",
  "catalog_uuid": "49dbc885-89c7-435d-af81-7d32a95ef134",
  "visualizable": "1",
  "active": "1",
  "created": 1538392253,
  "updated": 1543521378,
  "created_date": "2018-10-01T16:40:53Z",
  "updated_date": "2018-11-30T01:26:18Z",
  "target_bucket": {
    "index": "tn_api",
    "type": "49dbc885-89c7-435d-af81-7d32a95ef134",
    "field": "0763457c-1bb2-4fde-a9e5-12c0c1dd79aa"
  },
  "field": [
    {
      "id": "_sl_no",
      "name": "Sl.No",
      "type": "keyword"
    },
    {
      "id": "district",
      "name": "District",
      "type": "keyword"
    },
    {
      "id": "location",
      "name": "Location",
      "type": "keyword"
    },
    {
      "id": "year_of_formation",
      "name": "Year of formation",
      "type": "double"
    },
    {
      "id": "total_extent_in_acres",
      "name": "Total extent in acres",
      "type": "double"
    }
  ],
  "external_ws_url": "",
  "external_ws": "0",
  "message": "Resource lists",
  "version": "2.2.0",
  "status": "ok",
  "total": 114,
  "count": 114,
  "limit": "999",
  "offset": "0",
  "records": [
    {
      "_sl_no": "1",
      "district": "Chennai",
      "location": "Guindy",
      "year_of_formation": "1958",
      "total_extent_in_acres": "404.08"
    },
    {
      "_sl_no": "2",
      "district": "Chennai",
      "location": "Arumbakkam",
      "year_of_formation": "1979",
      "total_extent_in_acres": "3.92"
    },
    {
      "_sl_no": "3",
      "district": "Chennai",
      "location": "Villivakkam",
      "year_of_formation": "1979",
      "total_extent_in_acres": "2.04"
    },
    {
      "_sl_no": "4",
      "district": "Chennai",
      "location": "Kodungaiyur",
      "year_of_formation": "1979",
      "total_extent_in_acres": "7.88"
    },
    {
      "_sl_no": "5",
      "district": "Tiruvallur",
      "location": "Ambattur",
      "year_of_formation": "1963",
      "total_extent_in_acres": "1167"
    },
    {
      "_sl_no": "6",
      "district": "Tiruvallur",
      "location": "Kakkalur",
      "year_of_formation": "1988",
      "total_extent_in_acres": "283.01"
    },
    {
      "_sl_no": "7",
      "district": "Tiruvallur",
      "location": "Thirumazhisai",
      "year_of_formation": "1988",
      "total_extent_in_acres": "160.85"
    },
    {
      "_sl_no": "8",
      "district": "Tiruvallur",
      "location": "Gummidipoondi",
      "year_of_formation": "1988",
      "total_extent_in_acres": "25.24"
    },
    {
      "_sl_no": "9",
      "district": "Tiruvallur",
      "location": "R.K.Pet",
      "year_of_formation": "1996",
      "total_extent_in_acres": "8.15"
    },
    {
      "_sl_no": "10",
      "district": "Tiruvallur",
      "location": "Vichoor",
      "year_of_formation": "1994",
      "total_extent_in_acres": "59.16"
    },
    {
      "_sl_no": "11",
      "district": "Tiruvallur",
      "location": "Thirumullaivoil(WIP)",
      "year_of_formation": "2001",
      "total_extent_in_acres": "246.07"
    },
    {
      "_sl_no": "12",
      "district": "Tiruvallur",
      "location": "Chengarai",
      "year_of_formation": "2017",
      "total_extent_in_acres": "36.25"
    },
    {
      "_sl_no": "13",
      "district": "Kancheepuram",
      "location": "Kancheepuram",
      "year_of_formation": "1968",
      "total_extent_in_acres": "37.95"
    },
    {
      "_sl_no": "14",
      "district": "Kancheepuram",
      "location": "Maraimalainagar",
      "year_of_formation": "1981",
      "total_extent_in_acres": "39.5"
    },
    {
      "_sl_no": "15",
      "district": "Kancheepuram",
      "location": "Alathur",
      "year_of_formation": "1984",
      "total_extent_in_acres": "150"
    },
    {
      "_sl_no": "16",
      "district": "Kancheepuram",
      "location": "Thirumudivakkam (Main)",
      "year_of_formation": "1993",
      "total_extent_in_acres": "201.11"
    },
    {
      "_sl_no": "17",
      "district": "Kancheepuram",
      "location": "Thirumudivakkam (Micro)",
      "year_of_formation": "2013",
      "total_extent_in_acres": "5.262"
    },
    {
      "_sl_no": "18",
      "district": "Kancheepuram",
      "location": "Thirumudivakkam (WIP)",
      "year_of_formation": "2002",
      "total_extent_in_acres": "11.48"
    },
    {
      "_sl_no": "19",
      "district": "Kancheepuram",
      "location": "Thirumudivakkam Phase-II",
      "year_of_formation": "2017",
      "total_extent_in_acres": "22.44"
    },
    {
      "_sl_no": "20",
      "district": "Kancheepuram",
      "location": "Thandarai",
      "year_of_formation": "2017",
      "total_extent_in_acres": "44.3"
    },
    {
      "_sl_no": "21",
      "district": "Vellore",
      "location": "Katpadi",
      "year_of_formation": "1968",
      "total_extent_in_acres": "19.48"
    },
    {
      "_sl_no": "22",
      "district": "Vellore",
      "location": "Arakkonam",
      "year_of_formation": "1968",
      "total_extent_in_acres": "51.74"
    },
    {
      "_sl_no": "23",
      "district": "Vellore",
      "location": "Ranipet",
      "year_of_formation": "1972",
      "total_extent_in_acres": "113.44"
    },
    {
      "_sl_no": "24",
      "district": "Vellore",
      "location": "Mukuntharayapuram",
      "year_of_formation": "1980",
      "total_extent_in_acres": "86.19"
    },
    {
      "_sl_no": "25",
      "district": "Vellore",
      "location": "Vannivedu",
      "year_of_formation": "1987",
      "total_extent_in_acres": "16.44"
    },
    {
      "_sl_no": "26",
      "district": "Vellore",
      "location": "Vinnamangalam",
      "year_of_formation": "2009",
      "total_extent_in_acres": "10.49"
    },
    {
      "_sl_no": "27",
      "district": "Vellore",
      "location": "Vaniyambadi",
      "year_of_formation": "2013",
      "total_extent_in_acres": "7.08"
    },
    {
      "_sl_no": "28",
      "district": "Thiruvannamalai",
      "location": "Thiruvannamalai",
      "year_of_formation": "1968",
      "total_extent_in_acres": "15.56"
    },
    {
      "_sl_no": "29",
      "district": "Krishnagiri",
      "location": "Krishnagiri",
      "year_of_formation": "1965",
      "total_extent_in_acres": "41.86"
    },
    {
      "_sl_no": "30",
      "district": "Krishnagiri",
      "location": "Uthangarai",
      "year_of_formation": "1995",
      "total_extent_in_acres": "41.28"
    },
    {
      "_sl_no": "31",
      "district": "Krishnagiri",
      "location": "Hosur(SIPCOT)",
      "year_of_formation": "1976",
      "total_extent_in_acres": "95.15"
    },
    {
      "_sl_no": "32",
      "district": "Krishnagiri",
      "location": "Hosur(New)",
      "year_of_formation": "1999",
      "total_extent_in_acres": "18.8"
    },
    {
      "_sl_no": "33",
      "district": "Krishnagiri",
      "location": "Bargur",
      "year_of_formation": "1995",
      "total_extent_in_acres": "31.64"
    },
    {
      "_sl_no": "34",
      "district": "Krishnagiri",
      "location": "Pollupalli",
      "year_of_formation": "2009",
      "total_extent_in_acres": "60.96"
    },
    {
      "_sl_no": "35",
      "district": "Dharmapuri",
      "location": "Dharmapuri",
      "year_of_formation": "1965",
      "total_extent_in_acres": "20.28"
    },
    {
      "_sl_no": "36",
      "district": "Dharmapuri",
      "location": "Kadagathur",
      "year_of_formation": "2009",
      "total_extent_in_acres": "7.02"
    },
    {
      "_sl_no": "37",
      "district": "Dharmapuri",
      "location": "Parvathanahalli",
      "year_of_formation": "2014",
      "total_extent_in_acres": "29.89"
    },
    {
      "_sl_no": "38",
      "district": "Dharmapuri",
      "location": "Echampadi",
      "year_of_formation": "2017",
      "total_extent_in_acres": "50.46"
    },
    {
      "_sl_no": "39",
      "district": "Salem",
      "location": "Salem",
      "year_of_formation": "1967",
      "total_extent_in_acres": "19.55"
    },
    {
      "_sl_no": "40",
      "district": "Salem",
      "location": "Mettur",
      "year_of_formation": "1967",
      "total_extent_in_acres": "184.38"
    },
    {
      "_sl_no": "41",
      "district": "Salem",
      "location": "Karuppur WIP",
      "year_of_formation": "2004",
      "total_extent_in_acres": "51.24"
    },
    {
      "_sl_no": "42",
      "district": "Salem",
      "location": "Veerapandi",
      "year_of_formation": "1993",
      "total_extent_in_acres": "9.79"
    },
    {
      "_sl_no": "43",
      "district": "Salem",
      "location": "Konamrampatti",
      "year_of_formation": "2017",
      "total_extent_in_acres": "16.61"
    },
    {
      "_sl_no": "44",
      "district": "Namakkal",
      "location": "Namakkal",
      "year_of_formation": "1977",
      "total_extent_in_acres": "10.09"
    },
    {
      "_sl_no": "45",
      "district": "Namakkal",
      "location": "Thiruchengodu",
      "year_of_formation": "1980",
      "total_extent_in_acres": "9.18"
    },
    {
      "_sl_no": "46",
      "district": "Namakkal",
      "location": "Vettambadi",
      "year_of_formation": "2014",
      "total_extent_in_acres": "15.34"
    },
    {
      "_sl_no": "47",
      "district": "Erode",
      "location": "Erode",
      "year_of_formation": "1959",
      "total_extent_in_acres": "25.13"
    },
    {
      "_sl_no": "48",
      "district": "Erode",
      "location": "Nanjaiuthukuli",
      "year_of_formation": "1995",
      "total_extent_in_acres": "13.05"
    },
    {
      "_sl_no": "49",
      "district": "Erode",
      "location": "Perundurai",
      "year_of_formation": "2017",
      "total_extent_in_acres": "49.47"
    },
    {
      "_sl_no": "50",
      "district": "Coimbatore",
      "location": "Kurichi",
      "year_of_formation": "1972",
      "total_extent_in_acres": "88.43"
    },
    {
      "_sl_no": "51",
      "district": "Coimbatore",
      "location": "Malumichampatti",
      "year_of_formation": "1994",
      "total_extent_in_acres": "36.14"
    },
    {
      "_sl_no": "52",
      "district": "Tiruppur",
      "location": "Ganapathipalayam",
      "year_of_formation": "1993",
      "total_extent_in_acres": "17.1"
    },
    {
      "_sl_no": "53",
      "district": "Tiruppur",
      "location": "Tiruppur",
      "year_of_formation": "1978",
      "total_extent_in_acres": "10.14"
    },
    {
      "_sl_no": "54",
      "district": "Tiruppur",
      "location": "Gudimangalam",
      "year_of_formation": "1992",
      "total_extent_in_acres": "6.74"
    },
    {
      "_sl_no": "55",
      "district": "Tiruppur",
      "location": "Rasathavalasu",
      "year_of_formation": "2011",
      "total_extent_in_acres": "51.8"
    },
    {
      "_sl_no": "56",
      "district": "Nilgiris",
      "location": "Ooty",
      "year_of_formation": "1981",
      "total_extent_in_acres": "10.65"
    },
    {
      "_sl_no": "57",
      "district": "Cuddalore",
      "location": "Cuddalore",
      "year_of_formation": "1971",
      "total_extent_in_acres": "15.6"
    },
    {
      "_sl_no": "58",
      "district": "Cuddalore",
      "location": "Vadalur",
      "year_of_formation": "1972",
      "total_extent_in_acres": "26.22"
    },
    {
      "_sl_no": "59",
      "district": "Cuddalore",
      "location": "Periyanesalur",
      "year_of_formation": "2015",
      "total_extent_in_acres": "90.8"
    },
    {
      "_sl_no": "60",
      "district": "Villupuram",
      "location": "Patanam",
      "year_of_formation": "2014",
      "total_extent_in_acres": "60.55"
    },
    {
      "_sl_no": "61",
      "district": "Villupuram",
      "location": "Asanur",
      "year_of_formation": "2009",
      "total_extent_in_acres": "212.83"
    },
    {
      "_sl_no": "62",
      "district": "Villupuram",
      "location": "Kattuvannanjur",
      "year_of_formation": "2014",
      "total_extent_in_acres": "42"
    },
    {
      "_sl_no": "63",
      "district": "Villupuram",
      "location": "Venmaniathur",
      "year_of_formation": "2011",
      "total_extent_in_acres": "36.82"
    },
    {
      "_sl_no": "64",
      "district": "Perambalur",
      "location": "Elambalur",
      "year_of_formation": "2009",
      "total_extent_in_acres": "44.48"
    },
    {
      "_sl_no": "65",
      "district": "Thanjavur",
      "location": "Thanjavur",
      "year_of_formation": "1968",
      "total_extent_in_acres": "21.94"
    },
    {
      "_sl_no": "66",
      "district": "Thanjavur",
      "location": "Kumbakonam",
      "year_of_formation": "1968",
      "total_extent_in_acres": "32.3"
    },
    {
      "_sl_no": "67",
      "district": "Thanjavur",
      "location": "Pillaiyarpatti",
      "year_of_formation": "1974",
      "total_extent_in_acres": "10.96"
    },
    {
      "_sl_no": "68",
      "district": "Thanjavur",
      "location": "Nanjikkottai",
      "year_of_formation": "1996",
      "total_extent_in_acres": "26.3"
    },
    {
      "_sl_no": "69",
      "district": "Thanjavur",
      "location": "Palayapatti",
      "year_of_formation": "2012",
      "total_extent_in_acres": "104.37"
    },
    {
      "_sl_no": "70",
      "district": "Nagapattinam",
      "location": "Nagapattinam",
      "year_of_formation": "1966",
      "total_extent_in_acres": "20.97"
    },
    {
      "_sl_no": "71",
      "district": "Nagapattinam",
      "location": "Mayiladuthurai",
      "year_of_formation": "2009",
      "total_extent_in_acres": "12.56"
    },
    {
      "_sl_no": "72",
      "district": "Tiruchirapalli",
      "location": "Thuvakudi",
      "year_of_formation": "1974",
      "total_extent_in_acres": "478.38"
    },
    {
      "_sl_no": "73",
      "district": "Tiruchirapalli",
      "location": "Thiruverambur",
      "year_of_formation": "1974",
      "total_extent_in_acres": "74.5"
    },
    {
      "_sl_no": "74",
      "district": "Tiruchirapalli",
      "location": "Ariyamangalam",
      "year_of_formation": "1974",
      "total_extent_in_acres": "17.64"
    },
    {
      "_sl_no": "75",
      "district": "Tiruchirapalli",
      "location": "Kumbakudy",
      "year_of_formation": "2009",
      "total_extent_in_acres": "24.46"
    },
    {
      "_sl_no": "76",
      "district": "Tiruchirapalli",
      "location": "Valavanthaankottai(WIP)",
      "year_of_formation": "2003",
      "total_extent_in_acres": "51.7"
    },
    {
      "_sl_no": "77",
      "district": "Tiruchirapalli",
      "location": "Valavanthankottai",
      "year_of_formation": "2008",
      "total_extent_in_acres": "179.02"
    },
    {
      "_sl_no": "78",
      "district": "Karur",
      "location": "Karur (Vellalapatti)",
      "year_of_formation": "1974",
      "total_extent_in_acres": "26.63"
    },
    {
      "_sl_no": "79",
      "district": "Karur",
      "location": "Karur(Athur)",
      "year_of_formation": "1993",
      "total_extent_in_acres": "36.29"
    },
    {
      "_sl_no": "80",
      "district": "Karur",
      "location": "Punjaikalakurichi",
      "year_of_formation": "2016",
      "total_extent_in_acres": "52.076"
    },
    {
      "_sl_no": "81",
      "district": "Pudukottai",
      "location": "Pudukottai",
      "year_of_formation": "1974",
      "total_extent_in_acres": "23.18"
    },
    {
      "_sl_no": "82",
      "district": "Pudukottai",
      "location": "Pudukottai(SIPCOT)",
      "year_of_formation": "1988",
      "total_extent_in_acres": "51.45"
    },
    {
      "_sl_no": "83",
      "district": "Pudukottai",
      "location": "Mathur",
      "year_of_formation": "1975",
      "total_extent_in_acres": "26"
    },
    {
      "_sl_no": "84",
      "district": "Pudukottai",
      "location": "Mathur (New)",
      "year_of_formation": "2013",
      "total_extent_in_acres": "19.92"
    },
    {
      "_sl_no": "85",
      "district": "Theni",
      "location": "Theni",
      "year_of_formation": "1963",
      "total_extent_in_acres": "26.59"
    },
    {
      "_sl_no": "86",
      "district": "Theni",
      "location": "Andipatti",
      "year_of_formation": "1994",
      "total_extent_in_acres": "22.34"
    },
    {
      "_sl_no": "87",
      "district": "Theni",
      "location": "Marikundu",
      "year_of_formation": "2017",
      "total_extent_in_acres": "79.4"
    },
    {
      "_sl_no": "88",
      "district": "Dindigul",
      "location": "Dindigul",
      "year_of_formation": "1965",
      "total_extent_in_acres": "39.9"
    },
    {
      "_sl_no": "89",
      "district": "Dindigul",
      "location": "Batlagundu",
      "year_of_formation": "1965",
      "total_extent_in_acres": "16.26"
    },
    {
      "_sl_no": "90",
      "district": "Madurai",
      "location": "K.Pudur",
      "year_of_formation": "1960",
      "total_extent_in_acres": "56.05"
    },
    {
      "_sl_no": "91",
      "district": "Madurai",
      "location": "Kappalur",
      "year_of_formation": "1966",
      "total_extent_in_acres": "534.64"
    },
    {
      "_sl_no": "92",
      "district": "Madurai",
      "location": "Kappalur WIP",
      "year_of_formation": "2008",
      "total_extent_in_acres": "18.87"
    },
    {
      "_sl_no": "93",
      "district": "Ramnad",
      "location": "Paramakudi",
      "year_of_formation": "1976",
      "total_extent_in_acres": "10"
    },
    {
      "_sl_no": "94",
      "district": "Ramnad",
      "location": "Keelanagachi",
      "year_of_formation": "1993",
      "total_extent_in_acres": "10"
    },
    {
      "_sl_no": "95",
      "district": "Ramnad",
      "location": "Urapuli",
      "year_of_formation": "1993",
      "total_extent_in_acres": "12.14"
    },
    {
      "_sl_no": "96",
      "district": "Sivaganga",
      "location": "Karaikudi",
      "year_of_formation": "1966",
      "total_extent_in_acres": "180.19"
    },
    {
      "_sl_no": "97",
      "district": "Sivaganga",
      "location": "Sivaganga",
      "year_of_formation": "1966",
      "total_extent_in_acres": "70.61"
    },
    {
      "_sl_no": "98",
      "district": "Sivaganga",
      "location": "Krungakottai",
      "year_of_formation": "1993",
      "total_extent_in_acres": "21.85"
    },
    {
      "_sl_no": "99",
      "district": "Sivaganga",
      "location": "Sakkarakottai",
      "year_of_formation": "2017",
      "total_extent_in_acres": "100"
    },
    {
      "_sl_no": "100",
      "district": "Virudhunagar",
      "location": "Virudhunagar",
      "year_of_formation": "1958",
      "total_extent_in_acres": "45.65"
    },
    {
      "_sl_no": "101",
      "district": "Virudhunagar",
      "location": "Rajapalayam",
      "year_of_formation": "1995",
      "total_extent_in_acres": "41.13"
    },
    {
      "_sl_no": "102",
      "district": "Virudhunagar",
      "location": "Virudhunagar (Urban)",
      "year_of_formation": "2013",
      "total_extent_in_acres": "37.54"
    },
    {
      "_sl_no": "103",
      "district": "Tirunelveli",
      "location": "Pettai",
      "year_of_formation": "1959",
      "total_extent_in_acres": "50.55"
    },
    {
      "_sl_no": "104",
      "district": "Tirunelveli",
      "location": "Kadayanallur",
      "year_of_formation": "1992",
      "total_extent_in_acres": "10"
    },
    {
      "_sl_no": "105",
      "district": "Tirunelveli",
      "location": "Valliyur",
      "year_of_formation": "2005",
      "total_extent_in_acres": "39.91"
    },
    {
      "_sl_no": "106",
      "district": "Tirunelveli",
      "location": "Kurukkalpatti",
      "year_of_formation": "2016",
      "total_extent_in_acres": "68.8"
    },
    {
      "_sl_no": "107",
      "district": "Thoothukudi",
      "location": "Kovilpatti",
      "year_of_formation": "1962",
      "total_extent_in_acres": "85.54"
    },
    {
      "_sl_no": "108",
      "district": "Thoothukudi",
      "location": "Thoothukudi (Phase I)",
      "year_of_formation": "1988",
      "total_extent_in_acres": "9.72"
    },
    {
      "_sl_no": "109",
      "district": "Thoothukudi",
      "location": "Thoothukudi(Phase II)",
      "year_of_formation": "2003",
      "total_extent_in_acres": "14.46"
    },
    {
      "_sl_no": "110",
      "district": "Thoothukudi",
      "location": "Pidaneri",
      "year_of_formation": "2016",
      "total_extent_in_acres": "108.23"
    },
    {
      "_sl_no": "111",
      "district": "Kanyakumari",
      "location": "Konam",
      "year_of_formation": "1964",
      "total_extent_in_acres": "20.7"
    },
    {
      "_sl_no": "112",
      "district": "Kanyakumari",
      "location": "Marthandam",
      "year_of_formation": "1964",
      "total_extent_in_acres": "7.5"
    },
    {
      "_sl_no": "113",
      "district": "Ariyalur",
      "location": "Mallur",
      "year_of_formation": "2014",
      "total_extent_in_acres": "25.34"
    },
    {
      "_sl_no": "TOTAL",
      "district": "TOTAL",
      "location": "TOTAL",
      "year_of_formation": "NA",
      "total_extent_in_acres": "7842.138"
    }
  ]
}